{"version": 0.6, "generator": "Overpass API 0.7.62.1 084b4234", "osm3s": {"timestamp_osm_base": "2024-07-25T15:44:00Z", "copyright": "The data included in this document is from www.openstreetmap.org. The data is made available under ODbL."}, "elements": [{"type": "node", "id": 4059097500, "lat": 44.1176775, "lon": -69.1062277}, {"type": "node", "id": 4059097504, "lat": 44.118028, "lon": -69.1057717}, {"type": "node", "id": 4059097505, "lat": 44.1170806, "lon": -69.1053587}, {"type": "node", "id": 4059097506, "lat": 44.1173039, "lon": -69.1050797}, {"type": "node", "id": 4059097507, "lat": 44.1173463, "lon": -69.1051441}, {"type": "node", "id": 4059097508, "lat": 44.1175042, "lon": -69.1049134}, {"type": "node", "id": 4059097523, "lat": 44.1165568, "lon": -69.1065335}, {"type": "node", "id": 4059097524, "lat": 44.1164028, "lon": -69.1063136}, {"type": "node", "id": 4059097525, "lat": 44.1164721, "lon": -69.106217}, {"type": "node", "id": 4059097526, "lat": 44.1166184, "lon": -69.1064423}, {"type": "node", "id": 4059097559, "lat": 44.1158665, "lon": -69.1052085}, {"type": "node", "id": 4059097560, "lat": 44.1157452, "lon": -69.1052836}, {"type": "node", "id": 4059097561, "lat": 44.1155969, "lon": -69.1049376}, {"type": "node", "id": 4059097562, "lat": 44.115724, "lon": -69.1048437}, {"type": "node", "id": 4059097702, "lat": 44.1162978, "lon": -69.1056216}, {"type": "node", "id": 4059097703, "lat": 44.1160821, "lon": -69.1059193}, {"type": "node", "id": 4059097704, "lat": 44.1159589, "lon": -69.1057369}, {"type": "node", "id": 4059097705, "lat": 44.1161823, "lon": -69.1054472}, {"type": "node", "id": 4059098192, "lat": 44.1197841, "lon": -69.1025771}, {"type": "node", "id": 4059098193, "lat": 44.1196097, "lon": -69.1026877}, {"type": "node", "id": 4059098194, "lat": 44.1195524, "lon": -69.1025124}, {"type": "node", "id": 4059098195, "lat": 44.1197268, "lon": -69.1024018}, {"type": "node", "id": 4296798092, "lat": 44.1117675, "lon": -69.1066264, "tags": {"addr:city": "Rockland", "addr:housenumber": "743", "addr:postcode": "04841", "addr:state": "ME", "addr:street": "Main Street", "amenity": "restaurant", "cuisine": "seafood;american", "diet:pescetarian": "yes", "diet:seafood": "yes", "email": "hello@clawsrocklandmaine.com", "name": "Claws", "phone": "+1-207-596-5600", "takeaway": "yes", "toilets": "yes", "website": "https://clawsrocklandmaine.com/"}}, {"type": "way", "id": 403557974, "nodes": [4059097504, 4059097500, 4059097505, 4059097506, 4059097507, 4059097508, 4059097504], "tags": {"addr:city": "Rockland", "addr:housenumber": "75", "addr:postcode": "04841", "addr:state": "ME", "addr:street": "Maverick Street", "branch": "Rockland", "brand": "Hannaford", "brand:wikidata": "Q5648760", "building": "retail", "building:levels": "1", "name": "Hannaford", "opening_hours": "Mo-Sa 07:00-22:00; Su 07:00-21:00", "phone": "+1 207-594-2173", "ref": "8230", "roof:levels": "0", "shop": "supermarket", "website": "https://stores.hannaford.com/me/rockland/8230"}}, {"type": "way", "id": 403557981, "nodes": [4059097523, 4059097524, 4059097525, 4059097526, 4059097523], "tags": {"addr:city": "Rockland", "addr:housenumber": "75", "addr:postcode": "04841", "addr:state": "ME", "addr:street": "Maverick Street", "amenity": "fast_food", "brand": "Subway", "brand:wikidata": "Q244457", "building": "yes", "building:levels": "1", "cuisine": "sandwich", "name": "Subway", "opening_hours": "07:00-20:00", "phone": "+1 207-594-7579", "roof:levels": "0", "takeaway": "yes", "website": "https://restaurants.subway.com/united-states/me/rockland/75-maverick-st"}}, {"type": "way", "id": 403557990, "nodes": [4059097559, 4059097560, 4059097561, 4059097562, 4059097559], "tags": {"addr:city": "Rockland", "addr:housenumber": "60", "addr:postcode": "04841", "addr:state": "ME", "addr:street": "Camden Street", "amenity": "fast_food", "brand": "McDonald's", "brand:wikidata": "Q38076", "building": "retail", "building:levels": "1", "cuisine": "burger", "name": "McDonald's", "roof:levels": "0", "takeaway": "yes", "website": "https://www.mcdonalds.com/us/en-us/location/me/rockland/60-camden-st/1588.html"}}, {"type": "way", "id": 403557998, "nodes": [4059097702, 4059097703, 4059097704, 4059097705, 4059097702], "tags": {"addr:city": "Rockland", "addr:housenumber": "47", "addr:postcode": "04841", "addr:state": "ME", "addr:street": "Maverick Street", "building": "retail", "building:levels": "1", "roof:levels": "0"}}, {"type": "way", "id": 403558098, "nodes": [4059098192, 4059098193, 4059098194, 4059098195, 4059098192], "tags": {"addr:city": "Rockland", "addr:housenumber": "136", "addr:state": "ME", "addr:street": "Camden Street", "brand": "Circle K", "brand:wikidata": "Q3268010", "building": "retail", "building:levels": "1", "name": "Circle K", "roof:levels": "0", "shop": "convenience"}}]}