{"version": 0.6, "generator": "Overpass API 0.7.62.1 084b4234", "osm3s": {"timestamp_osm_base": "2024-07-23T20:30:13Z", "copyright": "The data included in this document is from www.openstreetmap.org. The data is made available under ODbL."}, "elements": [{"type": "node", "id": 2334557014, "lat": 38.9497948, "lon": -112.3455267}, {"type": "node", "id": 2334557015, "lat": 38.9498, "lon": -112.3452197}, {"type": "node", "id": 2334557016, "lat": 38.9499243, "lon": -112.3452237}, {"type": "node", "id": 2334557018, "lat": 38.9493931, "lon": -112.3458199}, {"type": "node", "id": 2334557019, "lat": 38.9494639, "lon": -112.3457244}, {"type": "node", "id": 2334557020, "lat": 38.9496376, "lon": -112.3458863}, {"type": "node", "id": 2334557026, "lat": 38.9480476, "lon": -112.345189}, {"type": "node", "id": 2334557028, "lat": 38.9479888, "lon": -112.34553}, {"type": "node", "id": 4271970166, "lat": 38.9481523, "lon": -112.345331}, {"type": "node", "id": 4271970170, "lat": 38.9492166, "lon": -112.3466504, "tags": {"addr:city": "Fillmore", "addr:housenumber": "1060", "addr:postcode": "84631-5035", "addr:state": "UT", "addr:street": "Highway 99", "amenity": "fast_food", "brand": "Burger King", "brand:wikidata": "Q177054", "cuisine": "burger", "delivery": "yes", "drive_through": "yes", "internet_access": "wlan", "name": "Burger King", "opening_hours": "08:00-21:00", "phone": "+1 435-743-5332", "ref": "18059", "takeaway": "yes", "website": "https://www.bk.com/store-locator/store/restaurant_11673"}}, {"type": "node", "id": 4271970171, "lat": 38.9490204, "lon": -112.3468434, "tags": {"amenity": "fast_food", "branch": "Vida", "brand": "Costa Vida", "brand:wikidata": "Q108403192", "cuisine": "mexican", "name": "Costa Vida", "official_name": "Costa Vida Fresh Mexican Grill", "takeaway": "yes"}}, {"type": "node", "id": 4271970172, "lat": 38.9495469, "lon": -112.3460085}, {"type": "node", "id": 4271970173, "lat": 38.9499192, "lon": -112.3455297}, {"type": "node", "id": 9467302418, "lat": 38.947881, "lon": -112.345578}, {"type": "node", "id": 9467302419, "lat": 38.9478084, "lon": -112.34548}, {"type": "node", "id": 9492835132, "lat": 38.9495325, "lon": -112.3458086}, {"type": "node", "id": 9492835133, "lat": 38.9495524, "lon": -112.3457818}, {"type": "node", "id": 11897556562, "lat": 38.9480298, "lon": -112.3454801, "tags": {"entrance": "main"}}, {"type": "way", "id": 224656285, "nodes": [4271970173, 2334557014, 2334557015, 2334557016, 4271970173], "tags": {"amenity": "fast_food", "building": "yes", "cuisine": "juice", "name": "Roxberry Juice Co Fillmore", "opening_hours": "closed"}}, {"type": "way", "id": 224656286, "nodes": [4271970172, 2334557018, 2334557019, 9492835132, 9492835133, 2334557020, 4271970172], "tags": {"amenity": "fast_food", "building": "yes", "name": "Iceberg Drive In"}}, {"type": "way", "id": 224656288, "nodes": [4271970166, 2334557026, 9467302419, 9467302418, 2334557028, 11897556562, 4271970166], "tags": {"addr:city": "Fillmore", "addr:housenumber": "965", "addr:postcode": "84631", "addr:state": "UT", "addr:street": "UT 99", "brand": "Maverik", "brand:wikidata": "Q64149010", "building": "retail", "name": "Maverik", "opening_hours": "24/7", "phone": "+1-435-261-2289", "shop": "convenience"}}]}