{"version": 0.6, "generator": "Overpass API 0.7.62.1 084b4234", "osm3s": {"timestamp_osm_base": "2024-07-25T18:45:45Z", "copyright": "The data included in this document is from www.openstreetmap.org. The data is made available under ODbL."}, "elements": [{"type": "node", "id": 2432911298, "lat": 38.832651, "lon": -104.835877, "tags": {"bench": "yes", "bin": "no", "bus": "yes", "highway": "bus_stop", "name": "Route 3 EB - West Colorado and Chestnut", "operator": "Mountain Metropolitan Transit", "public_transport": "platform", "shelter": "no"}}, {"type": "node", "id": 2432914273, "lat": 38.832885, "lon": -104.836408, "tags": {"bus": "yes", "highway": "bus_stop", "name": "Route 3 WB - West Colorado and Chestnut", "note": "scheduled to be removed", "operator": "Mountain Metropolitan Transit", "public_transport": "platform", "shelter": "no"}}, {"type": "node", "id": 2435582249, "lat": 38.8341588, "lon": -104.840408, "tags": {"bench": "yes", "bin": "no", "bus": "yes", "highway": "bus_stop", "operator": "Mountain Metropolitan Transit", "public_transport": "platform", "shelter": "no"}}, {"type": "node", "id": 4933453595, "lat": 38.8280649, "lon": -104.840581, "tags": {"bench": "yes", "bus": "yes", "highway": "bus_stop", "name": "S 8th St & W Costilla St", "public_transport": "platform", "source": "Bing"}}, {"type": "node", "id": 4933453601, "lat": 38.8280105, "lon": -104.840897, "tags": {"bench": "yes", "bus": "yes", "highway": "bus_stop", "name": "S 8th St & W Costilla St", "public_transport": "platform", "source": "Bing"}}, {"type": "node", "id": 4933454023, "lat": 38.8317205, "lon": -104.840276, "tags": {"bench": "yes", "bus": "yes", "highway": "bus_stop", "name": "S 8th St & W Vermijo St", "public_transport": "platform"}}, {"type": "node", "id": 4933454043, "lat": 38.8302046, "lon": -104.840853, "tags": {"bench": "yes", "bus": "yes", "highway": "bus_stop", "name": "S 8th St & W Cimarron St", "public_transport": "platform", "source": "Bing"}}]}