{"version": 0.6, "generator": "Overpass API 0.7.62.1 084b4234", "osm3s": {"timestamp_osm_base": "2024-07-25T19:08:06Z", "copyright": "The data included in this document is from www.openstreetmap.org. The data is made available under ODbL."}, "elements": [{"type": "node", "id": 2775831130, "lat": 43.8578723, "lon": -91.2404637}, {"type": "node", "id": 2775831141, "lat": 43.8599993, "lon": -91.2404372}, {"type": "node", "id": 2775831145, "lat": 43.8599438, "lon": -91.241023}, {"type": "node", "id": 2775831160, "lat": 43.8597891, "lon": -91.2407194}, {"type": "node", "id": 2775831163, "lat": 43.8575367, "lon": -91.2402563}, {"type": "node", "id": 2775831171, "lat": 43.8601301, "lon": -91.2403855}, {"type": "node", "id": 2775831182, "lat": 43.8600529, "lon": -91.2403847}, {"type": "node", "id": 2775831186, "lat": 43.8600789, "lon": -91.2404357}, {"type": "node", "id": 2775831192, "lat": 43.8600252, "lon": -91.2404881}, {"type": "node", "id": 2775831225, "lat": 43.8602847, "lon": -91.2406891}, {"type": "node", "id": 2775831229, "lat": 43.8578803, "lon": -91.2402861}, {"type": "node", "id": 2775831247, "lat": 43.8575287, "lon": -91.240434}, {"type": "node", "id": 10749528458, "lat": 43.8584345, "lon": -91.2424983}, {"type": "node", "id": 10749528459, "lat": 43.8583195, "lon": -91.242613}, {"type": "node", "id": 10749528460, "lat": 43.8581351, "lon": -91.2422572}, {"type": "node", "id": 10749528461, "lat": 43.8582501, "lon": -91.2421425}, {"type": "node", "id": 11307367898, "lat": 43.8600634, "lon": -91.2404053}, {"type": "node", "id": 11307367899, "lat": 43.8600094, "lon": -91.2404571}, {"type": "node", "id": 12048418151, "lat": 43.8575538, "lon": -91.2402578}, {"type": "way", "id": 272643505, "nodes": [2775831130, 2775831247, 2775831163, 12048418151, 2775831229, 2775831130], "tags": {"addr:city": "La Crosse", "addr:housenumber": "2437", "addr:postcode": "54601", "addr:state": "WI", "addr:street": "West George Street", "amenity": "fast_food", "brand": "McDonald's", "brand:wikidata": "Q38076", "building": "yes", "cuisine": "burger", "drive_through": "yes", "internet_access": "wlan", "name": "McDonald's", "opening_hours": "06:00-21:00", "phone": "+1 608-781-0366", "takeaway": "yes", "website": "https://www.mcdonalds.com/us/en-us/location/2079.html"}}, {"type": "way", "id": 692237161, "nodes": [2775831186, 2775831171, 2775831225, 2775831145, 2775831160, 2775831192, 11307367899, 2775831141, 2775831182, 11307367898, 2775831186], "tags": {"addr:city": "La Crosse", "addr:housenumber": "2626", "addr:postcode": "54603", "addr:state": "WI", "addr:street": "Rose Street", "amenity": "pharmacy", "brand": "Walgreens", "brand:wikidata": "Q1591889", "building": "yes", "dispensing": "yes", "drive_through": "yes", "healthcare": "pharmacy", "name": "Walgreens"}}, {"type": "way", "id": 1155908455, "nodes": [10749528458, 10749528459, 10749528460, 10749528461, 10749528458], "tags": {"addr:city": "La Crosse", "addr:housenumber": "2526", "addr:postcode": "54603", "addr:street": "Rose Street", "amenity": "restaurant", "area": "yes", "building": "yes", "cuisine": "steak", "name": "North Country Steak Buffet", "phone": "+1-608-781-3464", "website": "https://northcountrysteakbuffet.com/"}}]}