{"version": 0.6, "generator": "Overpass API 0.7.62.1 084b4234", "osm3s": {"timestamp_osm_base": "2024-07-25T18:10:04Z", "copyright": "The data included in this document is from www.openstreetmap.org. The data is made available under ODbL."}, "elements": [{"type": "node", "id": 11071055586, "lat": 35.2319715, "lon": -88.3832347}, {"type": "node", "id": 11071055587, "lat": 35.2318418, "lon": -88.3832501}, {"type": "node", "id": 11071055588, "lat": 35.2318636, "lon": -88.3835235}, {"type": "node", "id": 11071055589, "lat": 35.2319526, "lon": -88.3835129}, {"type": "node", "id": 11071055590, "lat": 35.2319425, "lon": -88.383386}, {"type": "node", "id": 11071055591, "lat": 35.2319832, "lon": -88.3833811}, {"type": "node", "id": 11194620227, "lat": 35.23493, "lon": -88.3846845, "tags": {"addr:city": "Adamsville", "addr:housenumber": "325", "addr:postcode": "38310", "addr:state": "TN", "addr:street": "Main Street", "amenity": "fast_food", "brand": "Sonic", "brand:wikidata": "Q7561808", "cuisine": "burger", "drive_in": "yes", "name": "Sonic", "opening_hours": "Mo-Th 06:00-21:00; Fr-Sa 06:00-22:00; Su 08:00-21:00", "phone": "+1 731-632-0788", "takeaway": "yes", "website": "https://locations.sonicdrivein.com/tn/adamsville/325-main-street.html"}}, {"type": "way", "id": 1192633394, "nodes": [11071055586, 11071055587, 11071055588, 11071055589, 11071055590, 11071055591, 11071055586], "tags": {"building": "yes", "name": "Buford Pusser Home & Museum", "tourism": "museum"}}]}