{"version": 0.6, "generator": "Overpass API 0.7.62.1 084b4234", "osm3s": {"timestamp_osm_base": "2024-07-25T18:22:13Z", "copyright": "The data included in this document is from www.openstreetmap.org. The data is made available under ODbL."}, "elements": [{"type": "node", "id": 4082257187, "lat": 30.068303, "lon": -99.1143455}, {"type": "node", "id": 4082258091, "lat": 30.0684224, "lon": -99.1141369}, {"type": "node", "id": 4082258092, "lat": 30.0687406, "lon": -99.1143129}, {"type": "node", "id": 4082258093, "lat": 30.0685975, "lon": -99.1145706}, {"type": "node", "id": 4082259689, "lat": 30.0674114, "lon": -99.1143577, "tags": {"amenity": "fast_food", "cuisine": "regional", "name": "Laredo Taco Company"}}, {"type": "node", "id": 4348069542, "lat": 30.0679656, "lon": -99.1154123}, {"type": "node", "id": 4348069543, "lat": 30.0679546, "lon": -99.1153607}, {"type": "node", "id": 4348069544, "lat": 30.0679827, "lon": -99.1153821}, {"type": "node", "id": 4348069545, "lat": 30.0680773, "lon": -99.1154973}, {"type": "node", "id": 4348069546, "lat": 30.068109, "lon": -99.1154416}, {"type": "node", "id": 4348069547, "lat": 30.0681037, "lon": -99.1150992}, {"type": "node", "id": 4348069548, "lat": 30.0682009, "lon": -99.1155116}, {"type": "node", "id": 4348069549, "lat": 30.0683355, "lon": -99.1152756}, {"type": "node", "id": 6615408547, "lat": 30.0693028, "lon": -99.1115955}, {"type": "node", "id": 6615408548, "lat": 30.0692875, "lon": -99.1116895}, {"type": "node", "id": 6615408549, "lat": 30.0693195, "lon": -99.1116965}, {"type": "node", "id": 6615408550, "lat": 30.06931, "lon": -99.1117547}, {"type": "node", "id": 6615408551, "lat": 30.0692861, "lon": -99.1117495}, {"type": "node", "id": 6615408552, "lat": 30.0692707, "lon": -99.1118442}, {"type": "node", "id": 6615408553, "lat": 30.0691892, "lon": -99.1118265}, {"type": "node", "id": 6615408554, "lat": 30.0692004, "lon": -99.1117575}, {"type": "node", "id": 6615408555, "lat": 30.0691839, "lon": -99.111754}, {"type": "node", "id": 6615408556, "lat": 30.0692129, "lon": -99.111576}, {"type": "node", "id": 6615408569, "lat": 30.0692178, "lon": -99.1135916, "tags": {"addr:city": "Kerrville", "addr:housenumber": "2128", "addr:postcode": "78028", "addr:state": "TX", "addr:street": "Sidney Baker", "amenity": "fast_food", "brand": "McDonald's", "brand:wikidata": "Q38076", "cuisine": "burger", "drive_through": "yes", "internet_access": "wlan", "name": "McDonald's", "opening_hours": "06:00-22:00", "phone": "+1 830-792-5575", "takeaway": "yes", "website": "https://www.mcdonalds.com/us/en-us/location/21850.html"}}, {"type": "node", "id": 6923573573, "lat": 30.067893, "lon": -99.1156119}, {"type": "node", "id": 6923573574, "lat": 30.067816, "lon": -99.1155244}, {"type": "node", "id": 6923573575, "lat": 30.067664, "lon": -99.115703}, {"type": "node", "id": 6923573576, "lat": 30.067741, "lon": -99.1157905}, {"type": "node", "id": 9428571196, "lat": 30.0687072, "lon": -99.1144626}, {"type": "node", "id": 9428571197, "lat": 30.0686782, "lon": -99.1145148}, {"type": "node", "id": 9428571198, "lat": 30.0687148, "lon": -99.1145419}, {"type": "node", "id": 9428571199, "lat": 30.0686832, "lon": -99.1144448}, {"type": "node", "id": 9428571200, "lat": 30.0686693, "lon": -99.1146238}, {"type": "node", "id": 9428571201, "lat": 30.0687519, "lon": -99.1143213}, {"type": "node", "id": 9428571202, "lat": 30.0687508, "lon": -99.1142951}, {"type": "node", "id": 9428571203, "lat": 30.0685588, "lon": -99.1142379}, {"type": "node", "id": 9428571204, "lat": 30.068593, "lon": -99.1141782}, {"type": "node", "id": 9428571234, "lat": 30.0672468, "lon": -99.1150019, "tags": {"addr:city": "Kerrville", "addr:country": "US", "addr:housenumber": "2105", "addr:postcode": "78028", "addr:state": "TX", "addr:street": "Sidney Baker Street", "addr:unit": "4", "amenity": "fast_food", "branch": "Kerrville", "brand": "Qdoba", "brand:wikidata": "Q1363885", "cuisine": "mexican", "name": "Qdoba", "official_name": "Qdoba Mexican Grill", "opening_hours": "Mo-Sa 11:00-20:00", "phone": "+1 830-800-0175", "takeaway": "yes", "website": "https://locations.qdoba.com/us/tx/kerrville/2105-sidney-baker-st.html"}}, {"type": "node", "id": 9428571235, "lat": 30.0671772, "lon": -99.1151534, "tags": {"addr:city": "Kerrville", "addr:country": "US", "addr:housenumber": "2105", "addr:postcode": "78028", "addr:state": "TX", "addr:street": "Sidney Baker Street", "addr:unit": "100", "amenity": "cafe", "branch": "Sidney Baker and Veterans Highway", "brand": "Starbucks", "brand:wikidata": "Q37158", "cuisine": "coffee_shop", "drive_through": "yes", "name": "Starbucks", "official_name": "Starbucks Coffee", "opening_hours": "Mo-Su 06:00-21:00", "phone": "+1-830-307-7329", "takeaway": "yes", "website": "https://www.starbucks.com/store-locator/store/1028909/sidney-baker-and-veterans-hwy-2105-sidney-baker-st-100-kerrville-tx-780282563-us"}}, {"type": "way", "id": 406115883, "nodes": [4082257187, 4082258091, 9428571203, 9428571204, 9428571202, 4082258092, 9428571201, 9428571199, 9428571196, 9428571197, 9428571198, 9428571200, 4082258093, 4082257187], "tags": {"addr:city": "Kerrville", "addr:housenumber": "2124", "addr:postcode": "78028", "addr:state": "TX", "addr:street": "Sidney Baker Street", "addr:unit": "A", "amenity": "restaurant", "building": "yes", "cuisine": "italian", "name": "Bella Sera"}}, {"type": "way", "id": 436973195, "nodes": [4348069543, 4348069544, 4348069542, 4348069545, 4348069546, 4348069548, 4348069549, 4348069547, 4348069543], "tags": {"addr:city": "Kerrville", "addr:full": "2110 Sidney Baker", "addr:housenumber": "2110", "addr:postcode": "78028", "addr:state": "TX", "addr:street": "Sidney Baker", "amenity": "restaurant", "brand": "Cracker Barrel", "brand:wikidata": "Q4492609", "building": "yes", "cuisine": "american", "name": "Cracker Barrel", "official_name": "Cracker Barrel Old Country Store", "opening_hours": "Su-Th 06:00-22:00; Fr-Sa 06:00-23:00", "phone": "+1-830-896-7808", "ref": "421"}}, {"type": "way", "id": 704420453, "nodes": [6615408547, 6615408548, 6615408549, 6615408550, 6615408551, 6615408552, 6615408553, 6615408554, 6615408555, 6615408556, 6615408547], "tags": {"addr:city": "Kerrville", "addr:housenumber": "2141", "addr:postcode": "78028", "addr:state": "TX", "addr:street": "Fredericksburg Road", "amenity": "restaurant", "building": "yes", "cuisine": "mexican", "name": "Margarita's City"}}, {"type": "way", "id": 739449798, "nodes": [6923573573, 6923573574, 6923573575, 6923573576, 6923573573], "tags": {"building": "yes", "information": "office", "name": "Kerrville Visitor Center", "tourism": "information"}}]}