{"version": 0.6, "generator": "Overpass API 0.7.62.1 084b4234", "osm3s": {"timestamp_osm_base": "2024-07-23T20:02:34Z", "copyright": "The data included in this document is from www.openstreetmap.org. The data is made available under ODbL."}, "elements": [{"type": "node", "id": 678205271, "lat": 40.6722082, "lon": -78.2371644, "tags": {"addr:city": "Tyrone", "addr:housenumber": "1100", "addr:postcode": "16686-1616", "addr:state": "PA", "addr:street": "Pennsylvania Avenue", "amenity": "fast_food", "brand": "Burger King", "brand:wikidata": "Q177054", "cuisine": "burger", "delivery": "yes", "drive_through": "yes", "internet_access": "wlan", "name": "Burger King", "opening_hours": "06:00-22:00", "phone": "+1 814-684-1106", "ref": "2551", "takeaway": "yes", "website": "https://www.bk.com/store-locator/store/restaurant_1381"}}, {"type": "node", "id": 678205559, "lat": 40.6725419, "lon": -78.2369712, "tags": {"amenity": "fast_food", "name": "The Dog House"}}, {"type": "node", "id": 1637339902, "lat": 40.6740218, "lon": -78.2363616, "tags": {"addr:city": "Tyrone", "addr:housenumber": "1302", "addr:postcode": "16686", "addr:state": "PA", "addr:street": "Pennsylvania Avenue", "amenity": "restaurant", "cuisine": "italian", "name": "D'Ottavio's", "opening_hours": "Mo 07:00-19:00; Tu-We 07:00-15:00; Th-Su 07:00-19:00", "phone": "+1-814-247-2288", "website": "https://www.dottaviositalianhousemenu.com/"}}, {"type": "node", "id": 4669015262, "lat": 40.6726627, "lon": -78.2372348}, {"type": "node", "id": 4669015263, "lat": 40.6726347, "lon": -78.2371284}, {"type": "node", "id": 4669015264, "lat": 40.6725822, "lon": -78.2371524}, {"type": "node", "id": 4669015265, "lat": 40.6726102, "lon": -78.2372588}, {"type": "node", "id": 6262446405, "lat": 40.6758492, "lon": -78.2379926}, {"type": "node", "id": 6262446419, "lat": 40.6756408, "lon": -78.2384297}, {"type": "node", "id": 6262446467, "lat": 40.675567, "lon": -78.2381034}, {"type": "node", "id": 6262446540, "lat": 40.675923, "lon": -78.2383188}, {"type": "node", "id": 11709136544, "lat": 40.6735194, "lon": -78.2366937}, {"type": "node", "id": 11709136545, "lat": 40.6733872, "lon": -78.2367501}, {"type": "node", "id": 11709136546, "lat": 40.6732763, "lon": -78.2363357}, {"type": "node", "id": 11709136547, "lat": 40.6734106, "lon": -78.2362646}, {"type": "way", "id": 472702713, "nodes": [4669015262, 4669015263, 4669015264, 4669015265, 4669015262], "tags": {"amenity": "restaurant", "building": "yes", "cuisine": "italian", "name": "Nino's Pizza"}}, {"type": "way", "id": 668734171, "nodes": [6262446419, 6262446540, 6262446405, 6262446467, 6262446419], "tags": {"amenity": "pharmacy", "brand": "Rite Aid", "brand:wikidata": "Q3433273", "building": "commercial", "check_date": "2024-06-19", "healthcare": "pharmacy", "name": "Rite Aid", "note": "Formerly Kopp Drug", "website": "https://www.riteaid.com/locations/pa/tyrone/1365-logan-avenue.html"}}, {"type": "way", "id": 1259492314, "nodes": [11709136544, 11709136545, 11709136546, 11709136547, 11709136544], "tags": {"addr:city": "Tyrone", "addr:housenumber": "1256", "addr:postcode": "16686", "addr:state": "PA", "addr:street": "Pennsylvania Avenue", "amenity": "pharmacy", "building": "yes", "dispensing": "yes", "healthcare": "pharmacy", "name": "Community Pharamacy", "opening_hours": "Mo-Fr 09:00-19:00; Sa 09:00-14:00; Su 11:00-14:00", "phone": "+1-814-684-0230", "website": "https://centralparx.com/community-pharmacy/"}}]}