{"version": 0.6, "generator": "Overpass API 0.7.62.1 084b4234", "osm3s": {"timestamp_osm_base": "2024-07-25T18:48:51Z", "copyright": "The data included in this document is from www.openstreetmap.org. The data is made available under ODbL."}, "elements": [{"type": "node", "id": 8260960821, "lat": 34.1830719, "lon": -93.0700478, "tags": {"addr:city": "Arkadelphia", "addr:housenumber": "146", "addr:postcode": "71923", "addr:state": "AR", "addr:street": "Valley Street", "amenity": "fast_food", "brand": "Subway", "brand:wikidata": "Q244457", "cuisine": "sandwich", "name": "Subway", "opening_hours": "09:00-22:00", "phone": "+1 870-245-3100", "takeaway": "yes", "website": "https://restaurants.subway.com/united-states/ar/arkadelphia/146-valley-st"}}, {"type": "node", "id": 9910925894, "lat": 34.1865617, "lon": -93.0720088}, {"type": "node", "id": 9910925895, "lat": 34.1867149, "lon": -93.0717963}, {"type": "node", "id": 9910925896, "lat": 34.1866733, "lon": -93.072127}, {"type": "node", "id": 9910925897, "lat": 34.1868243, "lon": -93.071919}, {"type": "node", "id": 10775552485, "lat": 34.1867676, "lon": -93.0703182, "tags": {"amenity": "fast_food", "name": "PJ Fresh Marketplace"}}, {"type": "node", "id": 10775552486, "lat": 34.1867976, "lon": -93.0701711, "tags": {"addr:city": "Caddo Valley", "addr:housenumber": "170", "addr:postcode": "71923", "addr:state": "AR", "addr:street": "Valley Street", "alt_name": "Dunkin' Donuts", "amenity": "fast_food", "brand": "Dunkin'", "brand:wikidata": "Q847743", "cuisine": "donut;coffee_shop", "drive_through": "no", "name": "Dunkin'", "opening_hours": "24/7", "phone": "+1 870-245-3119", "ref": "359252", "takeaway": "yes", "website": "https://locations.dunkindonuts.com/en/ar/caddo-valley/170-valley-st/359252"}}, {"type": "node", "id": 10775552499, "lat": 34.1878809, "lon": -93.0722429}, {"type": "node", "id": 10775552500, "lat": 34.187778, "lon": -93.0725546}, {"type": "node", "id": 10775552501, "lat": 34.18803, "lon": -93.0726763}, {"type": "node", "id": 10775552502, "lat": 34.1880719, "lon": -93.0725495}, {"type": "node", "id": 10775552503, "lat": 34.1880479, "lon": -93.0725379}, {"type": "node", "id": 10775552504, "lat": 34.188109, "lon": -93.0723529}, {"type": "way", "id": 1081318371, "nodes": [9910925895, 9910925897, 9910925896, 9910925894, 9910925895], "tags": {"addr:city": "Caddo Valley", "addr:housenumber": "167", "addr:postcode": "71923", "addr:state": "AR", "addr:street": "Valley Street", "amenity": "restaurant", "cuisine": "american", "level": "1", "name": "Flying Burger & Seafood", "smoking": "no", "takeaway": "yes"}}, {"type": "way", "id": 1158702965, "nodes": [10775552499, 10775552500, 10775552501, 10775552502, 10775552503, 10775552504, 10775552499], "tags": {"amenity": "restaurant", "brand": "Cracker Barrel", "brand:wikidata": "Q4492609", "building": "yes", "cuisine": "american", "name": "Cracker Barrel", "official_name": "Cracker Barrel Old Country Store"}}]}