{"version": 0.6, "generator": "Overpass API 0.7.62.1 084b4234", "osm3s": {"timestamp_osm_base": "2024-07-25T19:07:06Z", "copyright": "The data included in this document is from www.openstreetmap.org. The data is made available under ODbL."}, "elements": [{"type": "node", "id": 6978648232, "lat": 44.1925462, "lon": -88.4850246, "tags": {"bus": "yes", "highway": "bus_stop", "name": "Green Bay & North", "network": "VT", "network:wikidata": "Q7912245", "public_transport": "platform"}}, {"type": "node", "id": 6978648233, "lat": 44.1927772, "lon": -88.4853661, "tags": {"bus": "yes", "highway": "bus_stop", "name": "Green Bay & North", "network": "VT", "network:wikidata": "Q7912245", "public_transport": "platform"}}, {"type": "node", "id": 6978648234, "lat": 44.1893643, "lon": -88.4850386, "tags": {"bus": "yes", "highway": "bus_stop", "name": "Green Bay & Main", "network": "VT", "network:wikidata": "Q7912245", "public_transport": "platform"}}, {"type": "node", "id": 6978648235, "lat": 44.1894355, "lon": -88.4844481, "tags": {"bus": "yes", "highway": "bus_stop", "name": "Main & Green Bay", "network": "VT", "network:wikidata": "Q7912245", "public_transport": "platform"}}, {"type": "node", "id": 7003525873, "lat": 44.1894216, "lon": -88.4828441, "tags": {"bus": "yes", "highway": "bus_stop", "name": "Main Richard", "network": "VT", "network:wikidata": "Q7912245", "public_transport": "platform"}}, {"type": "node", "id": 7003525874, "lat": 44.1893331, "lon": -88.4802655, "tags": {"bus": "yes", "highway": "bus_stop", "name": "Main & Westren", "network": "VT", "network:wikidata": "Q7912245", "public_transport": "platform", "ref": "737"}}, {"type": "node", "id": 7010302684, "lat": 44.1863222, "lon": -88.4850224, "tags": {"bus": "yes", "highway": "bus_stop", "name": "Green Bay & Geiger", "network": "VT", "network:wikidata": "Q7912245", "public_transport": "platform"}}]}