{"version": 0.6, "generator": "Overpass API 0.7.62.1 084b4234", "osm3s": {"timestamp_osm_base": "2024-07-25T18:11:05Z", "copyright": "The data included in this document is from www.openstreetmap.org. The data is made available under ODbL."}, "elements": [{"type": "node", "id": 202372996, "lat": 35.1920807, "lon": -86.865992}, {"type": "node", "id": 202428164, "lat": 35.1931287, "lon": -86.8695278}, {"type": "node", "id": 202478541, "lat": 35.1922927, "lon": -86.8667052}, {"type": "node", "id": 202478544, "lat": 35.1908847, "lon": -86.8619084}, {"type": "node", "id": 2266657049, "lat": 35.1912158, "lon": -86.8630269}, {"type": "node", "id": 2266657054, "lat": 35.1917155, "lon": -86.8647458}, {"type": "node", "id": 2266657065, "lat": 35.1926893, "lon": -86.8680483}, {"type": "node", "id": 2266657077, "lat": 35.1930254, "lon": -86.8691754}, {"type": "way", "id": 217393432, "nodes": [202428164, 2266657077, 2266657065, 202478541, 202372996, 2266657054, 2266657049, 202478544], "tags": {"NHS": "yes", "hgv": "designated", "hgv:national_network": "yes", "highway": "trunk", "lanes": "4", "ref": "US 64", "source:hgv:national_network": "Title 23: Highways Part 658 http://ecfr.gpoaccess.gov/cgi/t/text/text-idx?c=ecfr&rgn=div5&view=text&node=23:1.0.1.7.33&idno=23", "tiger:cfcc": "A21", "tiger:county": "Giles, TN", "tiger:name_base": "United States Highway 64", "tiger:name_base_1": "Fayetteville", "tiger:name_base_2": "State Highway 15", "tiger:name_base_3": "US Hwy 64 (Scenic)", "tiger:name_base_4": "State Highway 15 (Scenic)", "tiger:name_type_1": "Hwy", "tiger:zip_left": "38478", "tiger:zip_left_1": "38478", "unsigned_ref": "SR 15"}}]}