{"version": 0.6, "generator": "Overpass API 0.7.62.1 084b4234", "osm3s": {"timestamp_osm_base": "2024-07-23T20:13:43Z", "copyright": "The data included in this document is from www.openstreetmap.org. The data is made available under ODbL."}, "elements": [{"type": "node", "id": 2101893085, "lat": 43.404442, "lon": -76.1194625}, {"type": "node", "id": 2101893086, "lat": 43.4043991, "lon": -76.1189422}, {"type": "node", "id": 2101893087, "lat": 43.404594, "lon": -76.1194143, "tags": {"addr:city": "Parish", "addr:housename": "Convenience Express", "addr:housenumber": "2788", "addr:postcode": "13131", "addr:state": "NY", "addr:street": "East Main Street", "alt_name": "Dunkin' Donuts", "amenity": "fast_food", "brand": "Dunkin'", "brand:wikidata": "Q847743", "contact:website": "https://locations.dunkindonuts.com/en/ny/parish/2877-state-route-69/343167", "cuisine": "donut;coffee_shop", "drive_through": "yes", "name": "Dunkin' Donuts", "opening_hours": "Mo-Sa 05:00-21:00; Su 06:00-21:00", "phone": "+1 315-625-7054", "ref": "343167", "takeaway": "yes", "website": "https://locations.dunkindonuts.com/en/ny/parish/2877-state-route-69/343167"}}, {"type": "node", "id": 2101893088, "lat": 43.4044537, "lon": -76.1192211}, {"type": "node", "id": 2101893089, "lat": 43.4045024, "lon": -76.1189046}, {"type": "node", "id": 2101893090, "lat": 43.4044069, "lon": -76.1192372}, {"type": "node", "id": 2101894539, "lat": 43.4045538, "lon": -76.1191907, "tags": {"amenity": "fuel", "brand": "Mirabito", "name": "Mirabito"}}, {"type": "node", "id": 2101897381, "lat": 43.4082079, "lon": -76.1143808}, {"type": "node", "id": 2101897383, "lat": 43.4084346, "lon": -76.1143702}, {"type": "node", "id": 2101897384, "lat": 43.4082397, "lon": -76.1143402}, {"type": "node", "id": 2101897385, "lat": 43.4083407, "lon": -76.1144901}, {"type": "node", "id": 2101897386, "lat": 43.408253, "lon": -76.1141007}, {"type": "node", "id": 7776499158, "lat": 43.4081273, "lon": -76.1142612}, {"type": "way", "id": 200192382, "nodes": [2101893087, 2101893085, 2101893090, 2101893088, 2101893086, 2101893089, 2101894539, 2101893087], "tags": {"addr:city": "Parish", "addr:housenumber": "2877", "addr:postcode": "13131", "addr:state": "NY", "addr:street": "East Main Street", "addr:unit": "A", "amenity": "restaurant", "building": "yes", "nysgissam:nysaddresspointid": "OSWE063523;OSWE038235;OSWE038228;OSWE038234", "source:data": "https://gis.ny.gov/gisdata", "source:imagery": "ESRI Sat & NYS Sat Imagery", "source:shape": "Modified MS Footprints https://cugir.library.cornell.edu"}}, {"type": "way", "id": 200192768, "nodes": [2101897386, 2101897383, 2101897385, 2101897384, 2101897381, 7776499158, 2101897386], "tags": {"addr:city": "Parish", "addr:flats": "P;P1", "addr:housename": "Grist Mill Restaurant", "addr:housenumber": "3039", "addr:postcode": "13131", "addr:state": "NY", "addr:street": "County Route 26", "amenity": "restaurant", "building": "yes", "name": "Grist Mill Restaurant", "nysgissam:nysaddresspointid": "OSWE063928;OSWE063929;OSWE038233"}}]}