{"version": 0.6, "generator": "Overpass API 0.7.62.1 084b4234", "osm3s": {"timestamp_osm_base": "2024-07-25T19:05:06Z", "copyright": "The data included in this document is from www.openstreetmap.org. The data is made available under ODbL."}, "elements": [{"type": "node", "id": 2951823973, "lat": 39.5432336, "lon": -82.4477454}, {"type": "node", "id": 2951823974, "lat": 39.5429681, "lon": -82.4476696}, {"type": "node", "id": 2951823975, "lat": 39.5430089, "lon": -82.4474293}, {"type": "node", "id": 2951823976, "lat": 39.5432744, "lon": -82.4475051}, {"type": "node", "id": 5765765937, "lat": 39.5409118, "lon": -82.4485981, "tags": {"addr:city": "Logan", "addr:housenumber": "30683", "addr:state": "OH", "addr:street": "Redrock Court", "amenity": "restaurant", "cuisine": "mexican", "name": "La Cascada Mexican Restaurant", "opening_hours": "Su 11:30-21:00,Mo-Th 11:00-21:00,Fr-Sa 11:00-22:30", "outdoor_seating": "no", "takeaway": "yes"}}, {"type": "node", "id": 6405232929, "lat": 39.5446967, "lon": -82.4494354}, {"type": "node", "id": 9605765520, "lat": 39.5437903, "lon": -82.4489329}, {"type": "node", "id": 9605765521, "lat": 39.5437748, "lon": -82.4487041}, {"type": "node", "id": 9675475466, "lat": 39.5446247, "lon": -82.4492894}, {"type": "node", "id": 9675475467, "lat": 39.5444718, "lon": -82.4494162}, {"type": "node", "id": 9675475468, "lat": 39.5444548, "lon": -82.4493817}, {"type": "node", "id": 9675475469, "lat": 39.5443564, "lon": -82.4494632}, {"type": "node", "id": 9675475470, "lat": 39.5444454, "lon": -82.4496437}, {"type": "node", "id": 10705329571, "lat": 39.5439295, "lon": -82.4489171}, {"type": "node", "id": 10705329572, "lat": 39.543914, "lon": -82.4486882}, {"type": "way", "id": 291706899, "nodes": [2951823973, 2951823974, 2951823975, 2951823976, 2951823973], "tags": {"addr:city": "Logan", "addr:housenumber": "12790", "addr:postcode": "43138", "addr:state": "OH", "addr:street": "Grey Street", "amenity": "restaurant", "building": "yes", "cuisine": "barbecue", "name": "Millstone BBQ", "website": "https://www.themillstonebbq.com/"}}, {"type": "way", "id": 1052817046, "nodes": [6405232929, 9675475466, 9675475467, 9675475468, 9675475469, 9675475470, 6405232929], "tags": {"addr:city": "Logan", "addr:country": "US", "addr:housenumber": "12684", "addr:postcode": "43138", "addr:state": "OH", "addr:street": "College Prospect Drive", "building": "retail", "building:levels": "1", "craft": "brewery", "name": "Brewery 33 Hocking Hills", "opening_hours": "Mo-Sa 12:00-21:00; Su 12:00-20:00", "phone": "+1-740-385-6033", "website": "https://brewery33.com/"}}, {"type": "way", "id": 1150811281, "nodes": [9605765520, 10705329571, 10705329572, 9605765521, 9605765520], "tags": {"addr:city": "Logan", "addr:housenumber": "12762", "addr:postcode": "43138", "addr:state": "OH", "addr:street": "Grey Street", "amenity": "restaurant", "building": "yes", "name": "Hungry Buffalo", "website": "https://www.hungrybuffalo.com/"}}]}