{"version": 0.6, "generator": "Overpass API 0.7.62.1 084b4234", "osm3s": {"timestamp_osm_base": "2024-07-25T18:55:59Z", "copyright": "The data included in this document is from www.openstreetmap.org. The data is made available under ODbL."}, "elements": [{"type": "node", "id": 506862228, "lat": 41.0143699, "lon": -76.4927432, "tags": {"amenity": "fast_food", "brand": "Subway", "brand:wikidata": "Q244457", "cuisine": "sandwich", "fixme:atp": "no ATP match, check if still exists", "name": "Subway", "takeaway": "yes"}}, {"type": "node", "id": 537853676, "lat": 41.0178436, "lon": -76.4918501}, {"type": "node", "id": 537937013, "lat": 41.0177765, "lon": -76.4915598}, {"type": "node", "id": 537937014, "lat": 41.0177294, "lon": -76.491579}, {"type": "node", "id": 537937016, "lat": 41.0176978, "lon": -76.4914428}, {"type": "node", "id": 537937018, "lat": 41.018052, "lon": -76.4912988}, {"type": "node", "id": 537937019, "lat": 41.0181507, "lon": -76.4917252}, {"type": "node", "id": 6693415742, "lat": 41.0172572, "lon": -76.491561}, {"type": "node", "id": 6693415743, "lat": 41.0170702, "lon": -76.4916272}, {"type": "node", "id": 6693415744, "lat": 41.0170866, "lon": -76.4917086}, {"type": "node", "id": 6693415745, "lat": 41.0170515, "lon": -76.491721}, {"type": "node", "id": 6693415746, "lat": 41.0170861, "lon": -76.4918927}, {"type": "node", "id": 6693415747, "lat": 41.0173081, "lon": -76.4918141}, {"type": "node", "id": 6693415773, "lat": 41.0164461, "lon": -76.4916889}, {"type": "node", "id": 6693415774, "lat": 41.0165102, "lon": -76.4920018}, {"type": "node", "id": 6693415775, "lat": 41.0163675, "lon": -76.4920531}, {"type": "node", "id": 6693415776, "lat": 41.0163035, "lon": -76.4917402}, {"type": "way", "id": 42940207, "nodes": [537853676, 537937013, 537937014, 537937016, 537937018, 537937019, 537853676], "tags": {"addr:city": "Bloomsburg", "addr:housenumber": "228", "addr:postcode": "17815", "addr:state": "PA", "addr:street": "Mall Boulevard", "amenity": "restaurant", "brand": "Cracker Barrel", "brand:wikidata": "Q4492609", "building": "yes", "cuisine": "american", "name": "Cracker Barrel", "official_name": "Cracker Barrel Old Country Store", "phone": "+1-570-389-9800", "website": "https://stage.crackerbarrel.com/Locations/States/pa/bloomsburg/435"}}, {"type": "way", "id": 711859697, "nodes": [6693415742, 6693415743, 6693415744, 6693415745, 6693415746, 6693415747, 6693415742], "tags": {"amenity": "restaurant", "brand": "Perkins", "brand:wikidata": "Q7169056", "building": "yes", "cuisine": "american", "name": "Perkins", "official_name": "Perkins Restaurant and Bakery"}}, {"type": "way", "id": 711859702, "nodes": [6693415773, 6693415774, 6693415775, 6693415776, 6693415773], "tags": {"amenity": "restaurant", "brand": "Ruby Tuesday", "brand:wikidata": "Q7376400", "building": "yes", "cuisine": "american", "name": "Ruby Tuesday"}}]}