{"version": 0.6, "generator": "Overpass API 0.7.62.1 084b4234", "osm3s": {"timestamp_osm_base": "2024-07-23T20:17:51Z", "copyright": "The data included in this document is from www.openstreetmap.org. The data is made available under ODbL."}, "elements": [{"type": "node", "id": 543621106, "lat": 44.5043483, "lon": -73.4805728, "tags": {"addr:city": "Keeseville", "addr:housenumber": "1721", "addr:postcode": "12944", "addr:state": "NY", "addr:street": "Front Street", "amenity": "library", "email": "kesvlib@yahoo.com", "name": "Keeseville Free Library", "nysgissam:nysaddresspointid": "ESSE018221", "phone": "+1 518 834 9054", "website": "https://cefls.org/libraries/keeseville/", "wikidata": "Q69966651"}}, {"type": "node", "id": 7607291886, "lat": 44.503066, "lon": -73.478699}, {"type": "node", "id": 7607291887, "lat": 44.503186, "lon": -73.478684}, {"type": "node", "id": 7607291888, "lat": 44.503197, "lon": -73.478863}, {"type": "node", "id": 7607291889, "lat": 44.503077, "lon": -73.478877}, {"type": "way", "id": 814399888, "nodes": [7607291889, 7607291888, 7607291887, 7607291886, 7607291889], "tags": {"addr:city": "Keeseville", "addr:housenumber": "96", "addr:postcode": "12944", "addr:state": "NY", "addr:street": "Clinton Street", "building": "yes", "name": "Anderson Falls Heritage Society Museum", "tourism": "museum"}}]}