{"version": 0.6, "generator": "Overpass API 0.7.62.1 084b4234", "osm3s": {"timestamp_osm_base": "2024-07-25T18:26:14Z", "copyright": "The data included in this document is from www.openstreetmap.org. The data is made available under ODbL."}, "elements": [{"type": "node", "id": 2170335614, "lat": 31.448844, "lon": -96.0769621, "tags": {"addr:city": "Buffalo", "addr:housenumber": "2430", "addr:postcode": "75831", "addr:state": "TX", "addr:street": "West Commerce Street", "amenity": "fast_food", "brand": "Church's Chicken", "brand:wikidata": "Q1089932", "cuisine": "chicken", "name": "Church's Chicken", "operator": "Church's", "phone": "+1 903-322-9159", "takeaway": "yes", "website": "https://locations.churchs.com/tx/buffalo/2430-w-commerce-street"}}, {"type": "node", "id": 2170335619, "lat": 31.4477187, "lon": -96.0781758}, {"type": "node", "id": 2170335625, "lat": 31.4482844, "lon": -96.0752841}, {"type": "node", "id": 3237458585, "lat": 31.4481861, "lon": -96.0776096}, {"type": "node", "id": 3237458586, "lat": 31.4482987, "lon": -96.0775216}, {"type": "node", "id": 3237458587, "lat": 31.4483012, "lon": -96.0778119}, {"type": "node", "id": 3237458588, "lat": 31.4484138, "lon": -96.0777239}, {"type": "node", "id": 3237458589, "lat": 31.4535946, "lon": -96.073479}, {"type": "node", "id": 3237458590, "lat": 31.4536672, "lon": -96.0734149}, {"type": "node", "id": 3237458591, "lat": 31.453735, "lon": -96.0736978}, {"type": "node", "id": 3237458592, "lat": 31.4538077, "lon": -96.0736337}, {"type": "node", "id": 3527968942, "lat": 31.4474315, "lon": -96.0782072}, {"type": "node", "id": 3527968943, "lat": 31.4475068, "lon": -96.0783405}, {"type": "node", "id": 3527968944, "lat": 31.4476035, "lon": -96.0782653}, {"type": "node", "id": 3527968945, "lat": 31.4476097, "lon": -96.0782762}, {"type": "node", "id": 3527968946, "lat": 31.4476492, "lon": -96.0780381}, {"type": "node", "id": 3527968947, "lat": 31.4476556, "lon": -96.0782249}, {"type": "node", "id": 3527968948, "lat": 31.4476618, "lon": -96.0782357}, {"type": "node", "id": 3527968949, "lat": 31.4476887, "lon": -96.0781081}, {"type": "node", "id": 3527968950, "lat": 31.4476975, "lon": -96.0781013}, {"type": "node", "id": 3527968951, "lat": 31.4477027, "lon": -96.0781475}, {"type": "node", "id": 3527968952, "lat": 31.4477173, "lon": -96.0781362}, {"type": "node", "id": 6380521549, "lat": 31.4480173, "lon": -96.0780052}, {"type": "node", "id": 6380521550, "lat": 31.447917, "lon": -96.0778233}, {"type": "node", "id": 6380521551, "lat": 31.4480307, "lon": -96.0777371}, {"type": "node", "id": 6380521552, "lat": 31.448131, "lon": -96.0779191}, {"type": "node", "id": 7790782694, "lat": 31.4476568, "lon": -96.0750672}, {"type": "node", "id": 7790782697, "lat": 31.4478298, "lon": -96.0748454}, {"type": "node", "id": 7790782705, "lat": 31.4476699, "lon": -96.0751498}, {"type": "node", "id": 7790782729, "lat": 31.4481592, "lon": -96.0753985}, {"type": "node", "id": 7790782732, "lat": 31.4479012, "lon": -96.0749761}, {"type": "node", "id": 7790782769, "lat": 31.448166, "lon": -96.075467}, {"type": "node", "id": 7790782770, "lat": 31.4481959, "lon": -96.0755119}, {"type": "node", "id": 7790782797, "lat": 31.4482221, "lon": -96.0754881}, {"type": "node", "id": 7790782803, "lat": 31.450465, "lon": -96.078696}, {"type": "node", "id": 7790782814, "lat": 31.45062, "lon": -96.0788}, {"type": "node", "id": 7790782820, "lat": 31.448252, "lon": -96.0755331}, {"type": "node", "id": 7790788122, "lat": 31.450553, "lon": -96.078516}, {"type": "node", "id": 7790788285, "lat": 31.4483752, "lon": -96.0754205}, {"type": "node", "id": 7790788286, "lat": 31.4476341, "lon": -96.0750843}, {"type": "node", "id": 7790788589, "lat": 31.4481901, "lon": -96.0754449}, {"type": "node", "id": 7790788610, "lat": 31.450708, "lon": -96.07862}, {"type": "node", "id": 7790790885, "lat": 31.4476211, "lon": -96.075002}, {"type": "node", "id": 8211283290, "lat": 31.4486914, "lon": -96.0789705, "tags": {"addr:city": "Buffalo", "addr:housenumber": "2605", "addr:postcode": "75831", "addr:state": "TX", "addr:street": "West Commerce", "amenity": "fast_food", "brand": "Taco Bell", "brand:wikidata": "Q752941", "cuisine": "tex-mex", "name": "Taco Bell", "phone": "+1 903-322-9045", "takeaway": "yes", "website": "https://locations.tacobell.com/tx/buffalo/2605-west-commerce.html"}}, {"type": "way", "id": 317471566, "nodes": [3237458591, 3237458592, 3237458590, 3237458589, 3237458591], "tags": {"addr:city": "Buffalo", "addr:housenumber": "1608", "addr:postcode": "75831", "addr:state": "TX", "addr:street": "West Commerce Street", "amenity": "restaurant", "brand": "Pizza Hut", "brand:wikidata": "Q191615", "building": "yes", "cuisine": "pizza", "name": "Pizza Hut", "operator": "Chevron", "phone": "+1 903-322-1780", "website": "https://locations.pizzahut.com/tx/buffalo/1608-west-commerce"}}, {"type": "way", "id": 317471567, "nodes": [3237458587, 3237458588, 3237458586, 3237458585, 3237458587], "tags": {"addr:city": "Buffalo", "addr:housenumber": "2536", "addr:postcode": "75831", "addr:state": "TX", "addr:street": "West Commerce", "alt_name": "Dairy Queen", "amenity": "fast_food", "brand": "DQ Grill & Chill", "brand:wikidata": "Q1141226", "building": "yes", "cuisine": "ice_cream;burger", "name": "DQ Grill & Chill", "operator": "Dairy Queen", "phone": "+1 903-322-5321", "takeaway": "yes", "website": "https://www.dairyqueen.com/locations/tx/buffalo/2536-w-commerce/3661"}}, {"type": "way", "id": 346231867, "nodes": [3527968943, 3527968944, 3527968945, 3527968948, 3527968947, 2170335619, 3527968951, 3527968952, 3527968950, 3527968949, 3527968946, 3527968942, 3527968943], "tags": {"addr:city": "Buffalo", "addr:housenumber": "2710", "addr:postcode": "75831", "addr:state": "TX", "addr:street": "West Commerce Street", "amenity": "fast_food", "building": "yes", "cuisine": "mexican", "name": "Rancho Express Tacos"}}, {"type": "way", "id": 681344790, "nodes": [6380521552, 6380521549, 6380521550, 6380521551, 6380521552], "tags": {"addr:city": "Buffalo", "addr:housenumber": "2610", "addr:postcode": "75831", "addr:state": "TX", "addr:street": "West Commerce Street", "amenity": "fast_food", "brand": "Sonic", "brand:wikidata": "Q7561808", "building": "yes", "cuisine": "burger", "drive_in": "yes", "name": "Sonic", "opening_hours": "Mo-Fr 07:00-21:00; Sa 08:00-21:00; Su 09:00-21:00", "operator": "Sonic", "takeaway": "yes", "website": "https://locations.sonicdrivein.com/tx/buffalo/2610-w-commerce.html"}}, {"type": "way", "id": 834592821, "nodes": [7790788122, 7790788610, 7790782814, 7790782803, 7790788122], "tags": {"addr:city": "Buffalo", "addr:housenumber": "311", "addr:postcode": "75831", "addr:state": "TX", "addr:street": "North Craig Street", "amenity": "restaurant", "building": "yes", "name": "Anthony's Restaurant", "source": "microsoft/BuildingFootprints"}}, {"type": "way", "id": 834592873, "nodes": [7790790885, 7790782697, 7790782732, 7790782705, 7790788286, 7790782694, 7790790885], "tags": {"addr:city": "Buffalo", "addr:housenumber": "441", "addr:postcode": "75831", "addr:state": "TX", "addr:street": "South Craig Street", "amenity": "fast_food", "brand": "McDonald's", "brand:wikidata": "Q38076", "building": "yes", "cuisine": "burger", "name": "McDonald's", "source": "microsoft/BuildingFootprints", "takeaway": "yes", "website": "https://www.mcdonalds.com/us/en-us/location/tx/buffalo/441-s-craigs-drive/35939.html"}}, {"type": "way", "id": 834592876, "nodes": [2170335625, 7790788285, 7790782820, 7790782797, 7790782770, 7790782769, 7790788589, 7790782729, 2170335625], "tags": {"addr:city": "Buffalo", "addr:housenumber": "325", "addr:postcode": "75831", "addr:state": "TX", "addr:street": "South Craig Street", "amenity": "restaurant", "building": "yes", "cuisine": "mexican", "name": "Rancho Viejo", "operator": "Rancho Viejo", "source": "microsoft/BuildingFootprints"}}]}