{"version": 0.6, "generator": "Overpass API 0.7.62.1 084b4234", "osm3s": {"timestamp_osm_base": "2024-07-23T19:56:15Z", "copyright": "The data included in this document is from www.openstreetmap.org. The data is made available under ODbL."}, "elements": [{"type": "node", "id": 2253007847, "lat": 44.8267567, "lon": -68.7561534}, {"type": "node", "id": 2253007848, "lat": 44.8264389, "lon": -68.7553982}, {"type": "node", "id": 2253007849, "lat": 44.8269122, "lon": -68.7550024}, {"type": "node", "id": 2253007850, "lat": 44.8272299, "lon": -68.7557577}, {"type": "node", "id": 3791896413, "lat": 44.8258703, "lon": -68.756468}, {"type": "node", "id": 3791896414, "lat": 44.8257236, "lon": -68.7561185}, {"type": "node", "id": 3791896415, "lat": 44.8255355, "lon": -68.7562755}, {"type": "node", "id": 3791896416, "lat": 44.8256823, "lon": -68.756625}, {"type": "node", "id": 3791909265, "lat": 44.8263214, "lon": -68.7554509}, {"type": "node", "id": 3791909266, "lat": 44.8258929, "lon": -68.7558102}, {"type": "node", "id": 3791909267, "lat": 44.8257765, "lon": -68.7555255}, {"type": "node", "id": 3791909268, "lat": 44.8262028, "lon": -68.7551716}, {"type": "way", "id": 215876667, "nodes": [2253007850, 2253007847, 2253007848, 2253007849, 2253007850], "tags": {"addr:city": "Bangor", "addr:housenumber": "489", "addr:postcode": "04401", "addr:state": "ME", "addr:street": "Stillwater Avenue", "brand": "Hobby Lobby", "brand:wikidata": "Q5874938", "building": "retail", "name": "Hobby Lobby", "shop": "craft"}}, {"type": "way", "id": 375848858, "nodes": [3791896413, 3791896414, 3791896415, 3791896416, 3791896413], "tags": {"addr:city": "Bangor", "addr:housenumber": "461", "addr:postcode": "04401", "addr:state": "ME", "addr:street": "Stillwater Avenue", "amenity": "restaurant", "brand": "Buffalo Wild Wings", "brand:wikidata": "Q509255", "building": "commercial", "cuisine": "wings", "name": "Buffalo Wild Wings", "short_name": "BW3"}}, {"type": "way", "id": 375850097, "nodes": [3791909265, 3791909266, 3791909267, 3791909268, 3791909265], "tags": {"building": "retail"}}]}