{"version": 0.6, "generator": "Overpass API 0.7.62.1 084b4234", "osm3s": {"timestamp_osm_base": "2024-07-25T18:52:56Z", "copyright": "The data included in this document is from www.openstreetmap.org. The data is made available under ODbL."}, "elements": [{"type": "node", "id": 2158627650, "lat": 39.5398269, "lon": -84.2908357}, {"type": "node", "id": 2158627697, "lat": 39.5398811, "lon": -84.2910144}, {"type": "node", "id": 2158627792, "lat": 39.5397779, "lon": -84.2911771}, {"type": "node", "id": 2158627827, "lat": 39.5399267, "lon": -84.2909071}, {"type": "node", "id": 2158627848, "lat": 39.5397417, "lon": -84.2912623}, {"type": "node", "id": 2158627866, "lat": 39.5398707, "lon": -84.2913546}, {"type": "node", "id": 2158627896, "lat": 39.5397041, "lon": -84.2911243}, {"type": "node", "id": 2158627901, "lat": 39.5399841, "lon": -84.2910881}, {"type": "node", "id": 6928589359, "lat": 39.5402796, "lon": -84.2892552, "tags": {"amenity": "restaurant", "cuisine": "american", "name": "Mom's"}}, {"type": "way", "id": 205877934, "nodes": [2158627866, 2158627848, 2158627792, 2158627896, 2158627650, 2158627827, 2158627697, 2158627901, 2158627866], "tags": {"addr:city": "Franklin", "addr:housenumber": "6805", "addr:postcode": "45005", "addr:state": "OH", "addr:street": "Franklin-Lebanon Road", "amenity": "fast_food", "brand": "Wendy's", "brand:wikidata": "Q550258", "building": "yes", "cuisine": "burger", "name": "Wendy's", "opening_hours": "07:00-22:00", "opening_hours:drive_through": "Mo-Su 06:30-00:00", "phone": "+1 937-743-1274", "takeaway": "yes", "website": "https://locations.wendys.com/united-states/oh/franklin/6805-franklin-lebanon-road"}}]}