{"version": 0.6, "generator": "Overpass API 0.7.62.1 084b4234", "osm3s": {"timestamp_osm_base": "2024-07-25T16:28:26Z", "copyright": "The data included in this document is from www.openstreetmap.org. The data is made available under ODbL."}, "elements": [{"type": "node", "id": 3864348459, "lat": 37.4688683, "lon": -86.2939263, "tags": {"amenity": "fast_food", "brand": "McDonald's", "brand:wikidata": "Q38076", "cuisine": "burger", "name": "McDonald's", "takeaway": "yes", "website": "https://www.mcdonalds.com/us/en-us/location/ky/leitchfield/714-s-main/11450.html"}}, {"type": "node", "id": 3864348461, "lat": 37.4681961, "lon": -86.2928211, "tags": {"addr:city": "Leitchfield", "addr:housenumber": "721", "addr:postcode": "42754", "addr:state": "KY", "addr:street": "South Main Street", "amenity": "fast_food", "brand": "Subway", "brand:wikidata": "Q244457", "cuisine": "sandwich", "name": "Subway", "opening_hours": "Mo-Th 08:00-21:00; Fr-Sa 08:00-22:00; Su 08:00-21:00", "phone": "+1 270-259-4999", "takeaway": "yes", "website": "https://restaurants.subway.com/united-states/ky/leitchfield/721-s-main-st"}}, {"type": "node", "id": 3864348462, "lat": 37.4690949, "lon": -86.2927908, "tags": {"addr:city": "Leitchfield", "addr:housenumber": "715", "addr:postcode": "42754", "addr:state": "KY", "addr:street": "South Main", "amenity": "fast_food", "brand": "Wendy's", "brand:wikidata": "Q550258", "cuisine": "burger", "drive_through": "yes", "name": "Wendy's", "opening_hours": "07:00-22:00", "opening_hours:drive_through": "Mo-Su 06:30-22:00", "phone": "+1 270-259-0530", "takeaway": "yes", "website": "https://locations.wendys.com/united-states/ky/leitchfield/715-south-main"}}, {"type": "node", "id": 3864348463, "lat": 37.4694266, "lon": -86.2930593, "tags": {"amenity": "fast_food", "brand": "Papa John's", "brand:wikidata": "Q2759586", "cuisine": "pizza", "name": "Papa John's", "takeaway": "yes"}}, {"type": "node", "id": 3864348465, "lat": 37.4701457, "lon": -86.2942922, "tags": {"addr:city": "Leitchfield", "addr:housenumber": "626", "addr:postcode": "42754", "addr:state": "KY", "addr:street": "South Main Street", "alt_name": "Kentucky Fried Chicken", "amenity": "fast_food", "brand": "KFC", "brand:wikidata": "Q524757", "cuisine": "chicken", "name": "KFC", "takeaway": "yes", "website": "https://locations.kfc.com/ky/leitchfield/626-south-main-street"}}, {"type": "node", "id": 3871785220, "lat": 37.4712851, "lon": -86.2936604, "tags": {"addr:city": "Leitchfield", "addr:housenumber": "613", "addr:postcode": "42754-1056", "addr:state": "KY", "addr:street": "South Main Street", "alt_name": "Dairy Queen", "amenity": "fast_food", "brand": "DQ Grill & Chill", "brand:wikidata": "Q1141226", "cuisine": "ice_cream;burger", "name": "DQ Grill & Chill", "phone": "+1 270-259-5822", "takeaway": "yes", "website": "https://www.dairyqueen.com/locations/ky/leitchfield/613-s-main-st/2799"}}, {"type": "node", "id": 11112083065, "lat": 37.4643763, "lon": -86.2923601, "tags": {"addr:city": "Leitchfield", "addr:housenumber": "802", "addr:postcode": "42754", "addr:state": "KY", "addr:street": "South Main Street", "amenity": "fast_food", "brand": "Taco Bell", "brand:wikidata": "Q752941", "cuisine": "tex-mex", "name": "Taco Bell", "opening_hours": "Mo-Th 07:00-24:00; Fr-Sa 07:00-01:00; Su 07:00-24:00", "phone": "+1 270-259-2857", "takeaway": "yes", "website": "https://locations.tacobell.com/ky/leitchfield/802-south-main-street.html"}}, {"type": "node", "id": 11112083066, "lat": 37.4648169, "lon": -86.2903391}, {"type": "node", "id": 11112083067, "lat": 37.4645986, "lon": -86.2902611}, {"type": "node", "id": 11112083068, "lat": 37.4645761, "lon": -86.2903611}, {"type": "node", "id": 11112083069, "lat": 37.4647943, "lon": -86.2904392}, {"type": "node", "id": 11112083070, "lat": 37.4686428, "lon": -86.292597}, {"type": "node", "id": 11112083071, "lat": 37.46853, "lon": -86.2925565}, {"type": "node", "id": 11112083072, "lat": 37.468469, "lon": -86.2928263}, {"type": "node", "id": 11112083073, "lat": 37.4685818, "lon": -86.2928668}, {"type": "node", "id": 11112083092, "lat": 37.469466, "lon": -86.2940031, "tags": {"amenity": "fast_food", "brand": "Little Caesars", "brand:wikidata": "Q1393809", "cuisine": "pizza", "name": "Little Caesars", "takeaway": "yes", "website": "https://littlecaesars.com/en-us/store/11266/"}}, {"type": "way", "id": 1197708621, "nodes": [11112083066, 11112083067, 11112083068, 11112083069, 11112083066], "tags": {"amenity": "restaurant", "brand": "Huddle House", "brand:wikidata": "Q5928324", "building": "yes", "cuisine": "american", "name": "Huddle House"}}, {"type": "way", "id": 1197708622, "nodes": [11112083070, 11112083071, 11112083072, 11112083073, 11112083070], "tags": {"amenity": "fast_food", "brand": "Captain D's", "brand:wikidata": "Q5036616", "building": "yes", "cuisine": "seafood", "name": "Captain D's", "official_name": "Captain D's Seafood Kitchen", "takeaway": "yes"}}]}