{"version": 0.6, "generator": "Overpass API 0.7.62.1 084b4234", "osm3s": {"timestamp_osm_base": "2024-07-25T18:21:13Z", "copyright": "The data included in this document is from www.openstreetmap.org. The data is made available under ODbL."}, "elements": [{"type": "node", "id": 1618529898, "lat": 33.4730771, "lon": -94.4101986}, {"type": "node", "id": 1618529900, "lat": 33.4720145, "lon": -94.4083778, "tags": {"amenity": "fast_food", "brand": "McDonald's", "brand:website": "https://www.mcdonalds.com/", "brand:wikidata": "Q38076", "cuisine": "burger", "drive_through": "yes", "name": "McDonald's", "takeaway": "yes", "website": "https://www.mcdonalds.com/us/en-us/location/tx/new-boston/702-n-mc-coy/12217.html"}}, {"type": "node", "id": 1619215016, "lat": 33.4722595, "lon": -94.4095744, "tags": {"addr:city": "New Boston", "addr:housenumber": "705", "addr:postcode": "75570", "addr:state": "TX", "addr:street": "North McCoy Boulevard", "amenity": "fast_food", "name": "KFC / Taco Bell", "phone": "+1 903-628-0741", "website": "https://locations.tacobell.com/tx/new-boston/705-n--mccoy-boulevard.html"}}, {"type": "node", "id": 4172831092, "lat": 33.4728565, "lon": -94.4101817}, {"type": "node", "id": 4172831099, "lat": 33.4730839, "lon": -94.4100716}, {"type": "node", "id": 4172831101, "lat": 33.4728633, "lon": -94.4100547}, {"type": "node", "id": 7064797754, "lat": 33.4772265, "lon": -94.4098841, "tags": {"addr:city": "New Boston", "addr:housenumber": "907", "addr:postcode": "75570", "addr:state": "TX", "addr:street": "North McCoy Boulevard", "amenity": "fast_food", "brand": "Wendy's", "brand:wikidata": "Q550258", "cuisine": "burger", "name": "Wendy's", "opening_hours": "24/7", "opening_hours:drive_through": "24/7", "phone": "+1 903-628-3531", "takeaway": "yes", "website": "https://locations.wendys.com/united-states/tx/new-boston/907-north-mccoy-blvd"}}, {"type": "node", "id": 8130665986, "lat": 33.4770938, "lon": -94.4104216, "tags": {"addr:housenumber": "907", "addr:street": "North McCoy Boulevard", "amenity": "fast_food", "name": "Wendy's Restaurant # 00013048", "phone": "+1 907-628-3531"}}, {"type": "node", "id": 8356605968, "lat": 33.4728847, "lon": -94.4098477}, {"type": "node", "id": 8356605969, "lat": 33.4726856, "lon": -94.4098378}, {"type": "node", "id": 8356605970, "lat": 33.4726908, "lon": -94.4096888}, {"type": "node", "id": 8356605971, "lat": 33.4728898, "lon": -94.4096986}, {"type": "way", "id": 416535552, "nodes": [1618529898, 4172831099, 4172831101, 4172831092, 1618529898], "tags": {"addr:city": "New Boston", "addr:housenumber": "1012", "addr:postcode": "75570", "addr:state": "TX", "addr:street": "North Center Street", "amenity": "restaurant", "brand": "Pizza Hut", "brand:wikidata": "Q191615", "building": "yes", "cuisine": "pizza", "name": "Pizza Hut", "phone": "+1 903-628-5527", "website": "https://locations.pizzahut.com/tx/new-boston/1012-n-center-st"}}, {"type": "way", "id": 899390664, "nodes": [8356605968, 8356605969, 8356605970, 8356605971, 8356605968], "tags": {"addr:city": "New Boston", "addr:housenumber": "707", "addr:postcode": "75570", "addr:state": "TX", "addr:street": "North McCoy Boulevard", "alt_name": "Dairy Queen", "amenity": "fast_food", "brand": "DQ Grill & Chill", "brand:wikidata": "Q1141226", "building": "yes", "cuisine": "ice_cream;burger", "name": "DQ Grill & Chill", "phone": "+1 903-628-3881", "takeaway": "yes", "website": "https://www.dairyqueen.com/locations/tx/new-boston/707-n-mccoy-blvd/4215"}}]}